[
  {
    "title": "Ac Service 299 - AC Services & Repair in Pune",
    "address": "Pune, Maharashtra, India",
    "type": "Air conditioning repair service",
    "phone": "+91 86055 04480",
    "hours": "Open 24 hours",
    "directions": "https://www.google.com/maps/dir//shop+no.1,+Ac+Service+299+-+AC+Services+%26+Repair+in+Pune,+Dhokhe+talim+chowk,+near+Krishna+Bag,+New+Nana+Peth,+Pune,+Maharashtra+411002,+India/data=!4m6!4m5!1m1!4e2!1m2!1m1!1s0x3bc2c1e17f6918a3:0x5ed40444fe9289e2?sa=X&ved=2ahUKEwispsrJw5eFAxUgv4kEHR2-B8gQ48ADegQIFRAA&hl=en&gl=us"
  },
  {
    "title": "Om sai ac repairs and services",
    "address": "Pune, Maharashtra, India",
    "type": "Air conditioning repair service",
    "yearsInBusiness": "3+ years in business",
    "phone": "+91 96045 99683",
    "hours": "Open 24 hours",
    "directions": "https://www.google.com/maps/dir//Sr.No+27,+Om+sai+ac+repairs+and+services,+Jail+Rd,+near+Aadarsh+Vyam+Shala,+Adarsh+Colony,+Yerawada,+Pune,+Maharashtra+411006,+India/data=!4m6!4m5!1m1!4e2!1m2!1m1!1s0x3bc2c1ed63280d4b:0x5a42db2ed0e97653?sa=X&ved=2ahUKEwispsrJw5eFAxUgv4kEHR2-B8gQ48ADegQIFBAA&hl=en&gl=us"
  },
  {
    "title": "Aircop Engg. Service - AC Repair & AC Installation Service, Pune",
    "address": "Pune, Maharashtra, India",
    "type": "Air conditioning repair service",
    "yearsInBusiness": "7+ years in business",
    "phone": "+91 90965 55943",
    "hours": "Open 24 hours",
    "directions": "https://www.google.com/maps/dir//Aircop+Engg.+Service+-+AC+Repair+%26+AC+Installation+Service,+Pune,+SNO+21+SAKHARE+BUILDING+BALAJI+NAGAR+DHANKWADI+NEAR+SIDDHI+HOSPITAL+BALAJI+NAGAR,+Dhankawadi,+Pune,+Maharashtra+411043,+India/data=!4m6!4m5!1m1!4e2!1m2!1m1!1s0x3bc2eabf0be217cb:0xab0e27b50f9b47e0?sa=X&ved=2ahUKEwispsrJw5eFAxUgv4kEHR2-B8gQ48ADegQIExAA&hl=en&gl=us"
  },
  {
    "title": "Samruddhi Refrigerator- Ac, washing machine, fridge repair servicing",
    "address": "Pune, Maharashtra, India",
    "type": "Air conditioning repair service",
    "yearsInBusiness": "3+ years in business",
    "phone": "+91 83293 96730",
    "hours": "Closed ⋅ Opens 9 AM Fri",
    "directions": "https://www.google.com/maps/dir//Samruddhi+Refrigerator-+Ac,+washing+machine,+fridge+repair+servicing,+House+No+13%2F1+Shitole+Nagar+Ganpati+chowk,+near+litle+flower+school,+Old+Sangvi,+Pune,+Maharashtra+411027,+India/data=!4m6!4m5!1m1!4e2!1m2!1m1!1s0x3bc2b976d75ab8b5:0x72c4d380caf7d7d9?sa=X&ved=2ahUKEwispsrJw5eFAxUgv4kEHR2-B8gQ48ADegQIEhAA&hl=en&gl=us"
  },
  {
    "title": "Galaxy AC Services",
    "address": "Pune, Maharashtra, India",
    "type": "Air conditioning repair service",
    "yearsInBusiness": "7+ years in business",
    "phone": "+91 91751 09434",
    "hours": "Open 24 hours",
    "directions": "https://www.google.com/maps/dir//Galaxy+AC+Services,+Shop+No+03,+A+S+K+Palace,+S+No+55,+H+No+9%2F13,+near+Janata+Bakery,+opposite+Bhat+Clinic,+Kondhwa,+Pune,+Maharashtra+411048,+India/data=!4m6!4m5!1m1!4e2!1m2!1m1!1s0x3bc2eb8609e149db:0xbb7e6d6e35c4c9e1?sa=X&ved=2ahUKEwispsrJw5eFAxUgv4kEHR2-B8gQ48ADegQIDxAA&hl=en&gl=us"
  },
  {
    "title": "A One AC Installation / AC Repair Services / AC AMC Vendor/ AC Gas Filling Airconditioning Services",
    "address": "Pune, Maharashtra, India",
    "type": "Air conditioning repair service",
    "yearsInBusiness": "5+ years in business",
    "phone": "+91 98902 47460",
    "hours": "Closed ⋅ Opens 9 AM Fri",
    "directions": "https://www.google.com/maps/dir//Sr.no+.650,+A+One+AC+Installation+%2F+AC+Repair+Services+%2F+AC+AMC+Vendor%2F+AC+Gas+Filling+Airconditioning+Services,+2%2F2,+behind+aai+mataji+mandir,+Jagade+Nagar,+Bibwewadi,+Pune,+Maharashtra+411037,+India/data=!4m6!4m5!1m1!4e2!1m2!1m1!1s0x3bc2ea916cec40f9:0xe038523f15b4a337?sa=X&ved=2ahUKEwispsrJw5eFAxUgv4kEHR2-B8gQ48ADegQIEBAA&hl=en&gl=us"
  },
  {
    "title": "Verma Air Conditioner Services",
    "address": "Pune, Maharashtra, India",
    "type": "Air conditioning contractor",
    "yearsInBusiness": "5+ years in business",
    "phone": "+91 84120 87447",
    "hours": "Open 24 hours",
    "directions": "https://www.google.com/maps/dir//Verma+Air+Conditioner+Services,+Ganesh+Kate+niwas+ground+floor+indriyani+vihar,+near+petrol+pump,+Sant+Nagar,+Lohegaon,+Pune,+Maharashtra+411047,+India/data=!4m6!4m5!1m1!4e2!1m2!1m1!1s0x3bc2c6b0c939a7ff:0xb4058be599ac908b?sa=X&ved=2ahUKEwispsrJw5eFAxUgv4kEHR2-B8gQ48ADegQIERAA&hl=en&gl=us"
  },
  {
    "title": "Climate Engineers",
    "address": "Pune, Maharashtra, India",
    "type": "Air conditioning repair service",
    "yearsInBusiness": "10+ years in business",
    "phone": "+91 93712 35031",
    "hours": "Closed ⋅ Opens 10 AM Fri",
    "directions": "https://www.google.com/maps/dir//Climate+Engineers,+SaiKunj+Society,+Lane+Number+7,+Dahanukar+Colony,+Kothrud,+Pune,+Maharashtra+411038,+India/data=!4m6!4m5!1m1!4e2!1m2!1m1!1s0x3bc2bf8ea78c9857:0x7e249d71d33337f0?sa=X&ved=2ahUKEwispsrJw5eFAxUgv4kEHR2-B8gQ48ADegQIDhAA&hl=en&gl=us"
  },
  {
    "title": "MS Cooling Zone - Ac Repair, Refrigerator, Water Purifier Repair Pune",
    "address": "Pimpri-Chinchwad, Maharashtra, India",
    "type": "Air conditioning repair service",
    "phone": "+91 81497 68496",
    "hours": "Closed ⋅ Opens 9 AM Fri",
    "directions": "https://www.google.com/maps/dir//MS+Cooling+Zone+-+Ac+Repair,+Refrigerator,+Water+Purifier+Repair+Pune,+Mankar+Chowk+Rd,+Kaspate+Wasti,+Wakad,+Pimpri-Chinchwad,+Maharashtra+411019,+India/data=!4m6!4m5!1m1!4e2!1m2!1m1!1s0x3bc2b97ad912b24d:0x605c69412b73459c?sa=X&ved=2ahUKEwispsrJw5eFAxUgv4kEHR2-B8gQ48ADegQIDBAA&hl=en&gl=us"
  },
  {
    "title": "AZIM CAR AC REPAIR",
    "address": "Pune, Maharashtra, India",
    "type": "Auto air conditioning service",
    "phone": "+91 98223 87313",
    "hours": "Closed ⋅ Opens 9:30 AM Fri",
    "directions": "https://www.google.com/maps/dir//AZIM+CAR+AC+REPAIR,+K+k+market,+Pune+-+Satara+Rd,+behind+Mahindra+showroom,+Dhankawadi,+Pune,+Maharashtra+411037,+India/data=!4m6!4m5!1m1!4e2!1m2!1m1!1s0x3bc2eb7e95c54aa7:0x44339b22e664c6e1?sa=X&ved=2ahUKEwispsrJw5eFAxUgv4kEHR2-B8gQ48ADegQICRAA&hl=en&gl=us"
  },
  {
    "title": "\"Cool Car\" Car Ac Repairs",
    "address": "Pune, Maharashtra, India",
    "type": "Auto air conditioning service",
    "phone": "+91 98220 45278",
    "hours": "Closed ⋅ Opens 10 AM Fri",
    "directions": "https://www.google.com/maps/dir//%22Cool+Car%22+Car+Ac+Repairs,+Opp.+Jeevan+Jyot+Hospital,+Kalyani+Nagar+Chowk,+Nagar+Rd,+Ramwadi,+Pune,+Maharashtra+411014,+India/data=!4m6!4m5!1m1!4e2!1m2!1m1!1s0x3bc2c115ec9f3d15:0x28e15225bc73ec12?sa=X&ved=2ahUKEwispsrJw5eFAxUgv4kEHR2-B8gQ48ADegQICxAA&hl=en&gl=us"
  },
  {
    "title": "Krisna|air conditioning",
    "address": "Pune, Maharashtra, India",
    "type": "HVAC contractor",
    "yearsInBusiness": "3+ years in business",
    "phone": "+91 93733 66609",
    "hours": "Closed ⋅ Opens 10 AM Fri",
    "directions": "https://www.google.com/maps/dir//Krisna%7Cair+conditioning,+Patil+Plaza,+309-B,+Saras+Baug,+Pune,+Maharashtra+411009,+India/data=!4m6!4m5!1m1!4e2!1m2!1m1!1s0x3bc2c12c19eba19d:0xe61e18e7a3f30731?sa=X&ved=2ahUKEwispsrJw5eFAxUgv4kEHR2-B8gQ48ADegQIDRAA&hl=en&gl=us"
  },
  {
    "title": "Mahesh Enterprises Ac Repair and services",
    "address": "Pune, Maharashtra, India",
    "type": "Air conditioning repair service",
    "yearsInBusiness": "7+ years in business",
    "phone": "+91 93722 32223",
    "hours": "Open 24 hours",
    "directions": "https://www.google.com/maps/dir//Mahesh+Enterprises+Ac+Repair+and+services,+Bk,+Sinhgad+Rd,+Jadhav+Nagar,+Vadgaon+Budruk,+Pune,+Maharashtra+411041,+India/data=!4m6!4m5!1m1!4e2!1m2!1m1!1s0x3bc295b00299b965:0xb11ebd2a3070582?sa=X&ved=2ahUKEwispsrJw5eFAxUgv4kEHR2-B8gQ48ADegQIARAA&hl=en&gl=us"
  },
  {
    "title": "Perfect air condition services",
    "address": "Pune, Maharashtra, India",
    "type": "Air conditioning repair service",
    "phone": "+91 86260 45480",
    "hours": "Open 24 hours",
    "directions": "https://www.google.com/maps/dir//Perfect+air+condition+services,+dalal+chouk,+24,+opposite+to+Muslim+Bank,+Ghorpade+Peth,+Swargate,+Pune,+Maharashtra+411042,+India/data=!4m6!4m5!1m1!4e2!1m2!1m1!1s0x3bc2c1378fca150d:0xbb41cd9e4c9bfccf?sa=X&ved=2ahUKEwispsrJw5eFAxUgv4kEHR2-B8gQ48ADegQIBhAA&hl=en&gl=us"
  },
  {
    "title": "Omkar Refrigeration - Ac, washing machine, fridge repair servicing",
    "address": "Pune, Maharashtra, India",
    "type": "Air conditioning repair service",
    "yearsInBusiness": "10+ years in business",
    "phone": "+91 99213 47494",
    "hours": "Closed ⋅ Opens 9 AM Fri",
    "directions": "https://www.google.com/maps/dir//Omkar+Refrigeration+-+Ac,+washing+machine,+fridge+repair+servicing,+Sr.+no.+5%2F2,+Samta+hsg.+Society,+Nakhate+Nagar,+Pune,+Maharashtra+411033,+India/data=!4m6!4m5!1m1!4e2!1m2!1m1!1s0x3bc2b95bed52c3dd:0xa8babedbe96c1293?sa=X&ved=2ahUKEwispsrJw5eFAxUgv4kEHR2-B8gQ48ADegQIBBAA&hl=en&gl=us"
  },
  {
    "title": "Al Jumerah Enterprises",
    "address": "Pune, Maharashtra, India",
    "type": "Air conditioning repair service",
    "yearsInBusiness": "3+ years in business",
    "phone": "+91 91562 22260",
    "hours": "Open 24 hours",
    "directions": "https://www.google.com/maps/dir//Shop+No.2,+Al+Jumerah+Enterprises,+Navin+Hind+High+School+Bldg,+775,+College,+next+to+Poona,+Bhawani+Peth,+Pune,+Maharashtra+411042,+India/data=!4m6!4m5!1m1!4e2!1m2!1m1!1s0x3bc2c1dc11e8e7fb:0xba087537952a8be9?sa=X&ved=2ahUKEwispsrJw5eFAxUgv4kEHR2-B8gQ48ADegQICBAA&hl=en&gl=us"
  },
  {
    "title": "Universal services",
    "address": "Pune, Maharashtra, India",
    "type": "Appliance repair service",
    "yearsInBusiness": "10+ years in business",
    "phone": "+91 88885 33210",
    "hours": "Open 24 hours",
    "directions": "https://www.google.com/maps/dir//Universal+services,+Vishwahira+complex,+14,+Raghoba+Patil+Nagar,+Sainath+Nagar,+Wadgaon+Sheri,+Pune,+Maharashtra+411014,+India/data=!4m6!4m5!1m1!4e2!1m2!1m1!1s0x3bc2c1791555555f:0xb36f46bfae705d5e?sa=X&ved=2ahUKEwispsrJw5eFAxUgv4kEHR2-B8gQ48ADegQIBRAA&hl=en&gl=us"
  },
  {
    "title": "AIM ENTERPRISES",
    "address": "Pune, Maharashtra, India",
    "type": "Air conditioning repair service",
    "yearsInBusiness": "3+ years in business",
    "phone": "+91 78419 01015",
    "hours": "Open 24 hours",
    "directions": "https://www.google.com/maps/dir//AIM+ENTERPRISES,+Shop+no.1+D.K.+tower+kausarbag+road,+pune-48,+next+to+welcome+holl,+Pune,+Maharashtra+411048,+India/data=!4m6!4m5!1m1!4e2!1m2!1m1!1s0x3bc2eb82761a789d:0xe84bdc42a4e418eb?sa=X&ved=2ahUKEwispsrJw5eFAxUgv4kEHR2-B8gQ48ADegQIAhAA&hl=en&gl=us"
  },
  {
    "title": "Life cool air conditioner",
    "address": "Pune, Maharashtra, India",
    "type": "Air conditioning repair service",
    "yearsInBusiness": "10+ years in business",
    "phone": "+91 99755 51431",
    "hours": "Open 24 hours",
    "directions": "https://www.google.com/maps/dir//shop+no+1,+Life+cool+air+conditioner,+Mauli+Niwas+App,+near+bio+lab,+Bhagyoday+Nagar,+Kondhwa,+Pune,+Maharashtra+411048,+India/data=!4m6!4m5!1m1!4e2!1m2!1m1!1s0x3bc2eb2841729c45:0x56b0fe97e5573f97?sa=X&ved=2ahUKEwispsrJw5eFAxUgv4kEHR2-B8gQ48ADegQIBxAA&hl=en&gl=us"
  },
  {
    "title": "HIREMAN-CRYSTAL REFRIGERATION AND AIR CONDITIONING",
    "address": "Pune, Maharashtra, India",
    "type": "Air conditioning contractor",
    "yearsInBusiness": "7+ years in business",
    "hours": "Closed ⋅ Opens 9 AM Fri",
    "directions": "https://www.google.com/maps/dir//Sr+No+13,+HIREMAN-CRYSTAL+REFRIGERATION+AND+AIR+CONDITIONING,+rahul+colony,+Hadapsar,+Pune,+Maharashtra+411028,+India/data=!4m6!4m5!1m1!4e2!1m2!1m1!1s0x3bc2c3a43c517241:0x2bf8a53ad03e06df?sa=X&ved=2ahUKEwispsrJw5eFAxUgv4kEHR2-B8gQ48ADegQIAxAA&hl=en&gl=us"
  }
]