[
  {
    "title": "M.N's Plumbing & Renovation",
    "address": "Pune, Maharashtra, India",
    "type": "Plumber",
    "yearsInBusiness": "25+ years in business",
    "phone": "+91 90287 69372",
    "hours": "Open ⋅ Closes 8 PM",
    "directions": "https://www.google.com/maps/dir//M.N's+Plumbing+%26+Renovation,+ShopNo.2,+1034,+opposite+Padamji+Police+Chowkey,+New+Nana+Peth,+Bhawani+Peth,+Pune,+Maharashtra+411002,+India/data=!4m6!4m5!1m1!4e2!1m2!1m1!1s0x3bc2ebf843e7e357:0x192cac8076fec665?sa=X&ved=2ahUKEwj9iNCH9paFAxW5rIQIHZkwBJMQ48ADegQIBxAA&hl=en&gl=us"
  },
  {
    "title": "Swain Plumbing works plumber and Service in Baner.Aundh pune",
    "address": "Pune, Maharashtra, India",
    "type": "Plumber",
    "yearsInBusiness": "5+ years in business",
    "phone": "+91 90824 77959",
    "hours": "Open ⋅ Closes 11 PM",
    "directions": "https://www.google.com/maps/dir//Swain+Plumbing+works+plumber+and+Service+in+Baner.Aundh+pune,+DP+Rd,+Aundh,+Pune,+Maharashtra+411007,+India/data=!4m6!4m5!1m1!4e2!1m2!1m1!1s0x3bc2bfec84acf383:0x9f3c62e64fbbfcbd?sa=X&ved=2ahUKEwj9iNCH9paFAxW5rIQIHZkwBJMQ48ADegQIExAA&hl=en&gl=us"
  },
  {
    "title": "Aquapulse Plumbing And services",
    "address": "Pune, Maharashtra, India",
    "type": "Plumber",
    "yearsInBusiness": "15+ years in business",
    "phone": "+91 90961 59685",
    "hours": "Open 24 hours",
    "directions": "https://www.google.com/maps/dir//Aquapulse+Plumbing+And+services,+Lover+Indiranagar,+near+K+K+Market,+Bibwewadi,+Pune,+Maharashtra+411037,+India/data=!4m6!4m5!1m1!4e2!1m2!1m1!1s0x3bc2eabdb02e1497:0x58fa6442f64b39f5?sa=X&ved=2ahUKEwj9iNCH9paFAxW5rIQIHZkwBJMQ48ADegQICBAA&hl=en&gl=us"
  },
  {
    "title": "Swastik Home Services",
    "address": "Pune, Maharashtra, India",
    "type": "Plumber",
    "yearsInBusiness": "7+ years in business",
    "phone": "+91 80552 26622",
    "hours": "Open 24 hours",
    "directions": "https://www.google.com/maps/dir//Swastik+Home+Services,+1090,+near+Mira+Datar+Dargah,+Raviwar+Peth,+Pune,+Maharashtra+411002,+India/data=!4m6!4m5!1m1!4e2!1m2!1m1!1s0x3bc2c11f06b05587:0xaf424b53356bea59?sa=X&ved=2ahUKEwj9iNCH9paFAxW5rIQIHZkwBJMQ48ADegQIEBAA&hl=en&gl=us"
  },
  {
    "title": "Plumbing & Civil Services",
    "address": "Pune, Maharashtra, India",
    "type": "Plumber",
    "yearsInBusiness": "7+ years in business",
    "phone": "+91 94232 46642",
    "hours": "Open ⋅ Closes 8 PM",
    "directions": "https://www.google.com/maps/dir//Plumbing+%26+Civil+Services,+Panchaleshwar+Amrut+tulya,Prasad+chambers,Karve+road+near+excel+petrol+pump,+near+Ranka+Jewellers,+Pune,+Maharashtra+411004,+India/data=!4m6!4m5!1m1!4e2!1m2!1m1!1s0x3bc2bf8d86e1927d:0x84a899dbc63d94a2?sa=X&ved=2ahUKEwj9iNCH9paFAxW5rIQIHZkwBJMQ48ADegQIERAA&hl=en&gl=us"
  },
  {
    "title": "Plumbing works/ plumber and service in BANER BAVDHAN PASHAN AUNDH Pune",
    "address": "Pune, Maharashtra, India",
    "type": "Plumber",
    "yearsInBusiness": "3+ years in business",
    "hours": "Open ⋅ Closes 11 PM",
    "directions": "https://www.google.com/maps/dir//Plumbing+works%2F+plumber+and+service+in+BANER+BAVDHAN+PASHAN+AUNDH+Pune,+Sr+249%2F3%2F4+AKSHAY+B+FL+2DARSHAN+PARK,+Baner+-+Aundh+Rd,+Aundh,+Pune,+Maharashtra+411008,+India/data=!4m6!4m5!1m1!4e2!1m2!1m1!1s0x3bc2bf68151adfd9:0xbc935534a84047aa?sa=X&ved=2ahUKEwj9iNCH9paFAxW5rIQIHZkwBJMQ48ADegQIDRAA&hl=en&gl=us"
  },
  {
    "title": "Mustafa Plumber",
    "address": "Pune, Maharashtra, India",
    "type": "Plumber",
    "yearsInBusiness": "3+ years in business",
    "phone": "+91 98904 73010",
    "hours": "Open ⋅ Closes 8 PM",
    "directions": "https://www.google.com/maps/dir//Mustafa+Plumber,+Ashoka+Mews,+Kondhwa+Main+Rd,+near+shital+petrol+pump,+Kondhwa,+Pune,+Maharashtra+411048,+India/data=!4m6!4m5!1m1!4e2!1m2!1m1!1s0x3bc2eb351c241035:0x2f6d73d04a77c252?sa=X&ved=2ahUKEwj9iNCH9paFAxW5rIQIHZkwBJMQ48ADegQIDxAA&hl=en&gl=us"
  },
  {
    "title": "Ganesh plumbing services",
    "address": "Maharashtra, India",
    "type": "Plumber",
    "phone": "+91 82082 38751",
    "hours": "Open ⋅ Closes 8 PM",
    "directions": "https://www.google.com/maps/dir//shop+no+6,+Ganesh+plumbing+services,+%E0%A4%B6%E0%A5%8D%E0%A4%B0%E0%A4%AE%E0%A4%B8%E0%A4%BE%E0%A4%AB%E0%A4%B2%E0%A5%8D%E0%A4%AF+%E0%A4%85%E0%A4%AA%E0%A4%BE%E0%A4%B0%E0%A5%8D%E0%A4%9F%E0%A4%AE%E0%A5%87%E0%A4%82%E0%A4%9F,+%E0%A4%9C%E0%A4%B5%E0%A4%B3+%E0%A4%AA%E0%A4%BF%E0%A4%86%E0%A4%B8%E0%A4%BF%E0%A4%9F%E0%A5%80+%E0%A4%95%E0%A5%89%E0%A4%B2%E0%A5%87%E0%A4%9C+%E0%A4%97%E0%A5%81%E0%A4%B0%E0%A5%81%E0%A4%95%E0%A5%83%E0%A4%AA%E0%A4%BE+%E0%A4%B9%E0%A5%89%E0%A4%9F%E0%A5%87%E0%A4%B2,+%E0%A4%AD%E0%A4%BE%E0%A4%B0%E0%A4%A4%E0%A5%80+%E0%A4%B5%E0%A4%BF%E0%A4%A6%E0%A5%8D%E0%A4%AF%E0%A4%BE%E0%A4%AA%E0%A5%80%E0%A4%A0,+%E0%A4%A4%E0%A5%8D%E0%A4%B0%E0%A4%BF%E0%A4%AE%E0%A5%82%E0%A4%B0%E0%A5%8D%E0%A4%A4%E0%A5%80+%E0%A4%9A%E0%A5%8C%E0%A4%95,+Maharashtra+411046,+India/data=!4m6!4m5!1m1!4e2!1m2!1m1!1s0x3bc2eba99c82f585:0x5656213038aed311?sa=X&ved=2ahUKEwj9iNCH9paFAxW5rIQIHZkwBJMQ48ADegQIDBAA&hl=en&gl=us"
  },
  {
    "title": "Plumbingwala Plumber Service",
    "address": "Pune, Maharashtra, India",
    "type": "Plumber",
    "yearsInBusiness": "7+ years in business",
    "phone": "+91 81498 60708",
    "hours": "Open ⋅ Closes 10 PM",
    "directions": "https://www.google.com/maps/dir//Plumbingwala+Plumber+Service,+Shree+Creative+Studio,+Sr.No.+22%2F2%2F1,+Bhoomi,+New+DP+Rd,+opp.+Rangla+Panjab+Hotel,+Vishal+Nagar,+Pimple+Nilakh,+Pune,+Maharashtra+411027,+India/data=!4m6!4m5!1m1!4e2!1m2!1m1!1s0x3bc2b9000e414cd9:0xf257ff66a42e72b3?sa=X&ved=2ahUKEwj9iNCH9paFAxW5rIQIHZkwBJMQ48ADegQIDhAA&hl=en&gl=us"
  },
  {
    "title": "Sanskruti Plumbing Services.all plumbing maintenence",
    "address": "Pune, Maharashtra, India",
    "type": "Plumber",
    "phone": "+91 77982 83008",
    "hours": "Open ⋅ Closes 8:30 PM",
    "directions": "https://www.google.com/maps/dir//Sanskruti+Plumbing+Services.all+plumbing+maintenence,+Magarpatta,+Hadapsar,+Pune,+Maharashtra,+India/data=!4m6!4m5!1m1!4e2!1m2!1m1!1s0x3bc2e9932e8a8adb:0x8cc3bffa2cd9969e?sa=X&ved=2ahUKEwj9iNCH9paFAxW5rIQIHZkwBJMQ48ADegQIChAA&hl=en&gl=us"
  },
  {
    "title": "Rajendra sahoo plumbing service",
    "address": "Pune, Maharashtra, India",
    "type": "Plumber",
    "phone": "+91 86005 07726",
    "hours": "Open 24 hours",
    "directions": "https://www.google.com/maps/dir//flat+no+4,+Rajendra+sahoo+plumbing+service,+Someshwarwadi,near+Vitthal+Mandir,+apaji+building,+Pune,+Maharashtra+411008,+India/data=!4m6!4m5!1m1!4e2!1m2!1m1!1s0x3bc2bfb3e616c99f:0x5977044854a75b37?sa=X&ved=2ahUKEwj9iNCH9paFAxW5rIQIHZkwBJMQ48ADegQICRAA&hl=en&gl=us"
  },
  {
    "title": "FZ plumbing service",
    "address": "Pune, Maharashtra, India",
    "type": "Plumber",
    "yearsInBusiness": "10+ years in business",
    "phone": "+91 87931 72747",
    "hours": "Open 24 hours",
    "directions": "https://www.google.com/maps/dir//Lane+number+15,+FZ+plumbing+service,+Kondhwa+Main+Rd,+Bhagyoday+Nagar,+Pune,+Maharashtra+411048,+India/data=!4m6!4m5!1m1!4e2!1m2!1m1!1s0x3bc2ebe21d7bb92d:0x4bb244e4c3d882cf?sa=X&ved=2ahUKEwj9iNCH9paFAxW5rIQIHZkwBJMQ48ADegQICxAA&hl=en&gl=us"
  },
  {
    "title": "BISWAL Plumber home service",
    "address": "Pune, Maharashtra, India",
    "type": "Plumber",
    "yearsInBusiness": "20+ years in business",
    "phone": "+91 70325 01321",
    "hours": "Open 24 hours",
    "directions": "https://www.google.com/maps/dir//BISWAL+Plumber+home+service,+Prashant+hardware+and+elc,+Shriram+towers+shop+no.2+chatrapati+Chowk+New,+Aundh,+Pune,+Maharashtra+411007,+India/data=!4m6!4m5!1m1!4e2!1m2!1m1!1s0x3bc2bf844d05cf07:0xa48389fe9f3d9ebc?sa=X&ved=2ahUKEwj9iNCH9paFAxW5rIQIHZkwBJMQ48ADegQIARAA&hl=en&gl=us"
  },
  {
    "title": "Super tech plumbing service",
    "address": "Pune, Maharashtra, India",
    "type": "Plumber",
    "phone": "+91 70383 01805",
    "hours": "Open 24 hours",
    "directions": "https://www.google.com/maps/dir//Super+tech+plumbing+service,+NIBM+Undri+Road,+Kondhwa,+Pune,+Maharashtra+411048,+India/data=!4m6!4m5!1m1!4e2!1m2!1m1!1s0x3bc2ebf41810e63b:0x7939fbc4890efeb4?sa=X&ved=2ahUKEwj9iNCH9paFAxW5rIQIHZkwBJMQ48ADegQIBhAA&hl=en&gl=us"
  },
  {
    "title": "Om Sai Plumbing and Tiling",
    "address": "Pune, Maharashtra, India",
    "type": "Plumber",
    "yearsInBusiness": "10+ years in business",
    "phone": "+91 70583 53509",
    "hours": "Open ⋅ Closes 11 PM",
    "directions": "https://www.google.com/maps/dir//Om+Sai+Plumbing+and+Tiling,+Pisoli+Rd,+near+dharmavat+petrol+pump,+Undri,+Pune,+Maharashtra+411060,+India/data=!4m6!4m5!1m1!4e2!1m2!1m1!1s0x3bc2eb63d069f843:0x247a090bd6b4afc4?sa=X&ved=2ahUKEwj9iNCH9paFAxW5rIQIHZkwBJMQ48ADegQIEhAA&hl=en&gl=us"
  },
  {
    "title": "SAURABH ENTERPRISES",
    "address": "Pune, Maharashtra, India",
    "type": "Plumber",
    "phone": "+91 98811 83740",
    "hours": "Open ⋅ Closes 8:30 PM",
    "directions": "https://www.google.com/maps/dir//SAURABH+ENTERPRISES,+Roop+nagari+society,+Kothrud,+Pune,+Maharashtra+411038,+India/data=!4m6!4m5!1m1!4e2!1m2!1m1!1s0x3bc2bf14b3a1494b:0xfb59496b28c6b029?sa=X&ved=2ahUKEwj9iNCH9paFAxW5rIQIHZkwBJMQ48ADegQIBRAA&hl=en&gl=us"
  },
  {
    "title": "DK plumber and electriction service ‍",
    "address": "Maharashtra, India",
    "type": "Plumber",
    "phone": "+91 90902 69150",
    "hours": "Open ⋅ Closes 12 AM",
    "directions": "https://www.google.com/maps/dir//DK+plumber+and+electriction+service+%E2%80%8D,+Shriram+towers+chatrati+chowk+aundgaon+aund+Pune+,411007+Aundh+and+sangvi+and+banner+and+balewadi,+Maharashtra+411007,+India/data=!4m6!4m5!1m1!4e2!1m2!1m1!1s0x3bc2bf3668e1bbd3:0x3d4172b64c94055f?sa=X&ved=2ahUKEwj9iNCH9paFAxW5rIQIHZkwBJMQ48ADegQIAhAA&hl=en&gl=us"
  },
  {
    "title": "Pasalkar Plumbing Works",
    "address": "Maharashtra, India",
    "type": "Plumber",
    "yearsInBusiness": "10+ years in business",
    "phone": "+91 99222 43837",
    "hours": "Open ⋅ Closes 9 PM",
    "directions": "https://www.google.com/maps/dir//Pasalkar+Plumbing+Works,+I+%2F+104,+Janaranjani,+Nanded,+Maharashtra+411041,+India/data=!4m6!4m5!1m1!4e2!1m2!1m1!1s0x3bc295a1fc8f6107:0x204805c4ee07e303?sa=X&ved=2ahUKEwj9iNCH9paFAxW5rIQIHZkwBJMQ48ADegQIAxAA&hl=en&gl=us"
  },
  {
    "title": "Pandharinath jadhav plumber",
    "address": "Pune, Maharashtra, India",
    "type": "Plumber",
    "phone": "+91 99220 63921",
    "hours": "Open 24 hours",
    "directions": "https://www.google.com/maps/dir//Pandharinath+jadhav+plumber,+Geeta+Complex,+kasturba+housing+sosayti,+Kasturba+Housing+Society,+Vishrantwadi,+Pune,+Maharashtra+410015,+India/data=!4m6!4m5!1m1!4e2!1m2!1m1!1s0x3bc2c178fe30ee79:0x60257100a3b59501?sa=X&ved=2ahUKEwj9iNCH9paFAxW5rIQIHZkwBJMQ48ADegQIBBAA&hl=en&gl=us"
  },
  {
    "title": "Garjai Plumbing Services",
    "address": "Pune, Maharashtra, India",
    "type": "Plumber",
    "yearsInBusiness": "3+ years in business",
    "phone": "+91 81494 18552",
    "hours": "Open ⋅ Closes 7 PM",
    "directions": null
  }
]