[
  {
    "title": "Om Sai Interior Designer & Carpenter",
    "address": "Shivaji Nagar Pune .5",
    "type": "Carpenter",
    "phone": "+91 99608 48783",
    "hours": "Open 24 hours",
    "directions": "https://www.google.com/maps/dir//Om+Sai+Interior+Designer+%26+Carpenter,+Shivaji+Nagar+Pune+.5,+Pune,+Maharashtra+411005,+India/data=!4m6!4m5!1m1!4e2!1m2!1m1!1s0x3bc2c14d07b4ab93:0xe56410ac03f030c7?sa=X&ved=2ahUKEwiCgJ3zyZeFAxVrefUHHS2jDgIQ48ADegQIFBAA&hl=en&gl=us"
  },
  {
    "title": "HK Furnitures & Carpenter",
    "address": "Vardhaman Hardware, Lane No. 7",
    "type": "Carpenter",
    "yearsInBusiness": "15+ years in business",
    "phone": "+91 84840 88374",
    "hours": "Open 24 hours",
    "directions": "https://www.google.com/maps/dir//HK+Furnitures+%26+Carpenter,+Vardhaman+Hardware,+Lane+No.+7,+Kalyani+Nagar,+Pune,+Maharashtra+411006,+India/data=!4m6!4m5!1m1!4e2!1m2!1m1!1s0x3bc2c13f487eadaf:0x30f4d4ca179d7269?sa=X&ved=2ahUKEwiCgJ3zyZeFAxVrefUHHS2jDgIQ48ADegQIFRAA&hl=en&gl=us"
  },
  {
    "title": "Ghevarchand Suthar & Asso.",
    "address": "Sr/no. 96/60, Sukhsagarnagar bhag-2, Lane Number 5",
    "type": "Carpenter",
    "yearsInBusiness": "5+ years in business",
    "phone": "+91 98225 14682",
    "hours": "Open 24 hours",
    "directions": "https://www.google.com/maps/dir//Ghevarchand+Suthar+%26+Asso.,+Sr%2Fno.+96%2F60,+Sukhsagarnagar+bhag-2,+Lane+Number+5,+Sainagar,+Kondhwa+Budruk,+Pune,+Maharashtra+411048,+India/data=!4m6!4m5!1m1!4e2!1m2!1m1!1s0x3bc2eb101aa7b889:0x5bea9f0d05dfb743?sa=X&ved=2ahUKEwiCgJ3zyZeFAxVrefUHHS2jDgIQ48ADegQIExAA&hl=en&gl=us"
  },
  {
    "title": "carpenter, glass,plumber, electrician | Repair services |www.toolman.in",
    "address": "Goklenager road/ wakad/Aundh/Baner/pashan Pimple soudager/Pimpri Chinchwad/khadki, Visharant Wadi",
    "type": "Carpenter",
    "yearsInBusiness": "20+ years in business",
    "phone": "+91 96893 09309",
    "hours": "Open 24 hours",
    "directions": "https://www.google.com/maps/dir//carpenter,+glass,plumber,+electrician+%7C+Repair+services+%7Cwww.toolman.in,+Goklenager+road%2F+wakad%2FAundh%2FBaner%2Fpashan+Pimple+soudager%2FPimpri+Chinchwad%2Fkhadki,+Visharant+Wadi,+Ravet,+Pune,+Maharashtra+411016,+India/data=!4m6!4m5!1m1!4e2!1m2!1m1!1s0x3bc2bf777f72a7ab:0x3b5af5dee00125c6?sa=X&ved=2ahUKEwiCgJ3zyZeFAxVrefUHHS2jDgIQ48ADegQIEhAA&hl=en&gl=us"
  },
  {
    "title": "gulistan furniture's",
    "address": "vardhaman hardware",
    "type": "Carpenter",
    "yearsInBusiness": "3+ years in business",
    "phone": "+91 98226 61754",
    "hours": "Open 24 hours",
    "directions": "https://www.google.com/maps/dir//gulistan+furniture's,+vardhaman+hardware,+Kalyani+Nagar,+Pune,+Maharashtra+411006,+India/data=!4m6!4m5!1m1!4e2!1m2!1m1!1s0x3bc2c1ccadd0c1af:0x76902111fecb5c95?sa=X&ved=2ahUKEwiCgJ3zyZeFAxVrefUHHS2jDgIQ48ADegQIDhAA&hl=en&gl=us"
  },
  {
    "title": "My Carpenter",
    "address": "Pune, Maharashtra, India",
    "type": "Carpenter",
    "phone": "+91 78430 65287",
    "hours": "Open 24 hours",
    "directions": "https://www.google.com/maps/dir//My+Carpenter,+Kalyani+Nagar,+Pune,+Maharashtra+411006,+India/data=!4m6!4m5!1m1!4e2!1m2!1m1!1s0x3bc2c1741c1300ff:0x18509ca3001558e0?sa=X&ved=2ahUKEwiCgJ3zyZeFAxVrefUHHS2jDgIQ48ADegQIEBAA&hl=en&gl=us"
  },
  {
    "title": "M.K furniture Carpenter service",
    "address": "sarve number 12, MAHALAXMI PROVISION STORE",
    "type": "Carpenter",
    "yearsInBusiness": "25+ years in business",
    "phone": "+91 63902 40646",
    "hours": "Open 24 hours",
    "directions": "https://www.google.com/maps/dir//sarve+number+12,+M.K+furniture+Carpenter+service,+MAHALAXMI+PROVISION+STORE,+Laxmi+Nagar,+Yerawada,+Pune,+Maharashtra+411006,+India/data=!4m6!4m5!1m1!4e2!1m2!1m1!1s0x3bc2c1b632939f2d:0x9a5f1e6d6e20684c?sa=X&ved=2ahUKEwiCgJ3zyZeFAxVrefUHHS2jDgIQ48ADegQIDxAA&hl=en&gl=us"
  },
  {
    "title": "New furnitures & reparing work",
    "address": "Ramwadi jakatnaka, Nagar Rd, near canra bank, near NTC marbal",
    "type": "Carpenter",
    "yearsInBusiness": "20+ years in business",
    "phone": "+91 88558 17602",
    "hours": "Open 24 hours",
    "directions": "https://www.google.com/maps/dir//New+furnitures+%26+reparing+work,+Ramwadi+jakatnaka,+Nagar+Rd,+near+canra+bank,+near+NTC+marbal,+Pune,+Maharashtra+411014,+India/data=!4m6!4m5!1m1!4e2!1m2!1m1!1s0x3bc2c1f812b7838b:0x260a9578a376e6b5?sa=X&ved=2ahUKEwiCgJ3zyZeFAxVrefUHHS2jDgIQ48ADegQIERAA&hl=en&gl=us"
  },
  {
    "title": "Carpenter",
    "address": "Pune, Maharashtra, India",
    "type": "Carpenter",
    "yearsInBusiness": "5+ years in business",
    "phone": "+91 80876 27081",
    "hours": "Open 24 hours",
    "directions": "https://www.google.com/maps/dir//Carpenter,+Ganesh+Nagar,+Yerawada,+Pune,+Maharashtra+411006,+India/data=!4m6!4m5!1m1!4e2!1m2!1m1!1s0x3bc2c1e49c744d91:0x745ffd8007e72390?sa=X&ved=2ahUKEwiCgJ3zyZeFAxVrefUHHS2jDgIQ48ADegQIDRAA&hl=en&gl=us"
  },
  {
    "title": "Rahul Carpenters & interior contractors (Decorate your house with arts )",
    "address": "Marriott hotel Shivaji housing society Bhairat, Udyan, Senapati Bapat Rd",
    "type": "Carpenter",
    "yearsInBusiness": "15+ years in business",
    "phone": "+91 91305 19896",
    "hours": "Closed ⋅ Opens 8:30 AM Fri",
    "directions": "https://www.google.com/maps/dir//Rahul+Carpenters+%26+interior+contractors+(Decorate+your+house+with+arts+),+Marriott+hotel+Shivaji+housing+society+Bhairat,+Udyan,+Senapati+Bapat+Rd,+Shivajinagar,+Pune,+Maharashtra+411016,+India/data=!4m6!4m5!1m1!4e2!1m2!1m1!1s0x3bc2bf9d5912fd7b:0x2a11e51128f1986?sa=X&ved=2ahUKEwiCgJ3zyZeFAxVrefUHHS2jDgIQ48ADegQICxAA&hl=en&gl=us"
  },
  {
    "title": "Krishna carpenter",
    "address": "Ashtavinayak mandir, Omkar apartment",
    "type": "Carpenter",
    "yearsInBusiness": "7+ years in business",
    "phone": "+91 76669 97185",
    "hours": "Open 24 hours",
    "directions": "https://www.google.com/maps/dir//Krishna+carpenter,+Ashtavinayak+mandir,+Omkar+apartment,+Patil+Nagar,+Balewadi,+Pune,+Maharashtra+411045,+India/data=!4m6!4m5!1m1!4e2!1m2!1m1!1s0x3bc2b90e4e3d714b:0x85167365730db053?sa=X&ved=2ahUKEwiCgJ3zyZeFAxVrefUHHS2jDgIQ48ADegQIChAA&hl=en&gl=us"
  },
  {
    "title": "Babaloo Furniture and Alluminium",
    "address": "R.K. Lunkad's Nisarg Deep 1, C/o Nikitasha Boutique, Shop no. 02",
    "type": "Carpenter",
    "yearsInBusiness": "3+ years in business",
    "phone": "+91 99236 43174",
    "hours": "Open 24 hours",
    "directions": "https://www.google.com/maps/dir//Babaloo+Furniture+and+Alluminium,+R.K.+Lunkad's+Nisarg+Deep+1,+C%2Fo+Nikitasha+Boutique,+Shop+no.+02,+Kaspate+Wasti,+Wakad,+Pune,+Maharashtra+411057,+India/data=!4m6!4m5!1m1!4e2!1m2!1m1!1s0x3bc2b9cd469cfe39:0xe06a376676c7644b?sa=X&ved=2ahUKEwiCgJ3zyZeFAxVrefUHHS2jDgIQ48ADegQIDBAA&hl=en&gl=us"
  },
  {
    "title": "Carpenter Furniture Services",
    "address": "HW5Q+4CJ",
    "type": "Carpenter",
    "yearsInBusiness": "15+ years in business",
    "phone": "+91 98220 26474",
    "hours": "Open 24 hours",
    "directions": "https://www.google.com/maps/dir//HW5Q%2B4CJ+Carpenter+Furniture+Services,+Ashoka+Nagar,+Kharadi,+Pune,+Maharashtra+411014,+India/data=!4m6!4m5!1m1!4e2!1m2!1m1!1s0x3bc2c367a615624f:0xf6784c4c40ec49d4?sa=X&ved=2ahUKEwiCgJ3zyZeFAxVrefUHHS2jDgIQ48ADegQICBAA&hl=en&gl=us"
  },
  {
    "title": "Jagdish carpenter",
    "address": "Near madhuban society Rd, 411045, behind MITCON",
    "type": "Carpenter",
    "phone": "+91 97849 86587",
    "hours": "Open 24 hours",
    "directions": "https://www.google.com/maps/dir//Jagdish+carpenter,+Near+madhuban+society+Rd,+411045,+behind+MITCON,+Balewadi,+Pune,+Maharashtra+411045,+India/data=!4m6!4m5!1m1!4e2!1m2!1m1!1s0x3bc2b94f61d923f7:0x439a7507701ac9e2?sa=X&ved=2ahUKEwiCgJ3zyZeFAxVrefUHHS2jDgIQ48ADegQIBRAA&hl=en&gl=us"
  },
  {
    "title": "Sanjay Furniture works",
    "address": "Pune, Maharashtra, India",
    "type": "Carpenter",
    "yearsInBusiness": "15+ years in business",
    "phone": "+91 91729 27505",
    "hours": "Open 24 hours",
    "directions": "https://www.google.com/maps/dir//Sanjay+Furniture+works,+Viman+Nagar,+Pune,+Maharashtra+411014,+India/data=!4m6!4m5!1m1!4e2!1m2!1m1!1s0x3bc2c12b2dcc1aed:0xf3d97bc277839495?sa=X&ved=2ahUKEwiCgJ3zyZeFAxVrefUHHS2jDgIQ48ADegQIBhAA&hl=en&gl=us"
  },
  {
    "title": "Meera Carpenter - Furniture & Interior Works",
    "address": "Ramesh Suthar, House No. 439, Ram Indu Park, Baner - Mahalunge Rd",
    "type": "Carpenter",
    "phone": "+91 80057 16388",
    "hours": "Open 24 hours",
    "directions": "https://www.google.com/maps/dir//Meera+Carpenter+-+Furniture+%26+Interior+Works,+Ramesh+Suthar,+House+No.+439,+Ram+Indu+Park,+Baner+-+Mahalunge+Rd,+Baner,+Pune,+Maharashtra+411045,+India/data=!4m6!4m5!1m1!4e2!1m2!1m1!1s0x3bc2bfb3ffc7819f:0x35357099ddd15d37?sa=X&ved=2ahUKEwiCgJ3zyZeFAxVrefUHHS2jDgIQ48ADegQIAxAA&hl=en&gl=us"
  },
  {
    "title": "Royal furniture & Interior work",
    "address": "Mahalaxmi",
    "type": "Carpenter",
    "yearsInBusiness": "15+ years in business",
    "phone": "+91 90286 17430",
    "hours": "Open 24 hours",
    "directions": "https://www.google.com/maps/dir//Royal+furniture+%26+Interior+work,+Mahalaxmi,+Kalyani+Nagar,+Maharashtra+411014,+India/data=!4m6!4m5!1m1!4e2!1m2!1m1!1s0x3bc2c1284e458897:0xfc9fe7525eea776a?sa=X&ved=2ahUKEwiCgJ3zyZeFAxVrefUHHS2jDgIQ48ADegQIBBAA&hl=en&gl=us"
  },
  {
    "title": "Arun carpenter & furniture house",
    "address": "22/206 Al - Firdous , gokhle nagar, Senapati Bapat Rd",
    "type": "Carpenter",
    "yearsInBusiness": "25+ years in business",
    "phone": "+91 99303 96161",
    "hours": "Closed ⋅ Opens 6 AM Fri",
    "directions": "https://www.google.com/maps/dir//Arun+carpenter+%26+furniture+house,+22%2F206+Al+-+Firdous+,+gokhle+nagar,+Senapati+Bapat+Rd,+Janwadi,+Police+chowki,+Pune,+Maharashtra+411016,+India/data=!4m6!4m5!1m1!4e2!1m2!1m1!1s0x3bc2bf48f44eee8b:0xca81cdb981a07f3d?sa=X&ved=2ahUKEwiCgJ3zyZeFAxVrefUHHS2jDgIQ48ADegQIARAA&hl=en&gl=us"
  },
  {
    "title": "Star Carpenter Pune",
    "address": "SNO, UJAWAL PRESS, SNO'SA/1/10, SA/1/10, Mundhwa - Kharadi Rd",
    "type": "Carpenter",
    "phone": "+91 89482 64624",
    "hours": "Closed ⋅ Opens 9 AM Fri",
    "directions": "https://www.google.com/maps/dir//SNO,+Star+Carpenter+Pune,+UJAWAL+PRESS,+SNO'SA%2F1%2F10,+SA%2F1%2F10,+Mundhwa+-+Kharadi+Rd,+Pune,+Maharashtra+411036,+India/data=!4m6!4m5!1m1!4e2!1m2!1m1!1s0x3bc2c1bebe4f0d89:0x8cee51625688e5db?sa=X&ved=2ahUKEwiCgJ3zyZeFAxVrefUHHS2jDgIQ48ADegQIAhAA&hl=en&gl=us"
  },
  {
    "title": "Manoj Carpenter Service",
    "address": "shop no 5, Prince Hardware, Memory Craft, Vitthal Rao Shivarkar Rd",
    "type": "Carpenter",
    "yearsInBusiness": "25+ years in business",
    "phone": "+91 99603 11918",
    "hours": "Closed ⋅ Opens 9 AM Fri",
    "directions": "https://www.google.com/maps/dir//shop+no+5,+Manoj+Carpenter+Service,+Prince+Hardware,+Memory+Craft,+Vitthal+Rao+Shivarkar+Rd,+Wanwadi,+Pune,+Maharashtra+411040,+India/data=!4m6!4m5!1m1!4e2!1m2!1m1!1s0x3bc2c1c6189fabbb:0x88283d18165e69a6?sa=X&ved=2ahUKEwiCgJ3zyZeFAxVrefUHHS2jDgIQ48ADegQIBxAA&hl=en&gl=us"
  }
]